{"name":"Goodwill Shawnee"}
{"results":[{"address_components":[{"long_name":"10611","short_name":"10611","types":["street_number"]},{"long_name":"Shawnee Mission Parkway","short_name":"Shawnee Mission Pkwy","types":["route"]},{"long_name":"Shawnee","short_name":"Shawnee","types":["locality","political"]},{"long_name":"Johnson County","short_name":"Johnson County","types":["administrative_area_level_2","political"]},{"long_name":"Kansas","short_name":"KS","types":["administrative_area_level_1","political"]},{"long_name":"United States","short_name":"US","types":["country","political"]},{"long_name":"66203","short_name":"66203","types":["postal_code"]}],"formatted_address":"10611 Shawnee Mission Pkwy, Shawnee, KS 66203, USA","geometry":{"bounds":{"northeast":{"lat":39.01409719999999,"lng":-94.70906900000001},"southwest":{"lat":39.0137451,"lng":-94.70965}},"location":{"lat":39.0139212,"lng":-94.7093595},"location_type":"ROOFTOP","viewport":{"northeast":{"lat":39.0152701302915,"lng":-94.70801051970851},"southwest":{"lat":39.0125721697085,"lng":-94.71070848029152}}},"place_id":"ChIJhRXSYN7swIcRTnc5hQKVb7U","types":["premise"]}],"status":"OK"}
{"name":"Nearly New Shop"}
{"results":[{"address_components":[{"long_name":"4710","short_name":"4710","types":["street_number"]},{"long_name":"Northeast Vivion Road","short_name":"NE Vivion Rd","types":["route"]},{"long_name":"Foxwoods-Carriage Hills","short_name":"Foxwoods-Carriage Hills","types":["neighborhood","political"]},{"long_name":"Kansas City","short_name":"KCMO","types":["locality","political"]},{"long_name":"Chouteau Township","short_name":"Chouteau Township","types":["administrative_area_level_3","political"]},{"long_name":"Clay County","short_name":"Clay County","types":["administrative_area_level_2","political"]},{"long_name":"Missouri","short_name":"MO","types":["administrative_area_level_1","political"]},{"long_name":"United States","short_name":"US","types":["country","political"]},{"long_name":"64119","short_name":"64119","types":["postal_code"]},{"long_name":"2932","short_name":"2932","types":["postal_code_suffix"]}],"formatted_address":"4710 NE Vivion Rd, Kansas City, MO 64119, USA","geometry":{"bounds":{"northeast":{"lat":39.1887107,"lng":-94.5242749},"southwest":{"lat":39.1883711,"lng":-94.52441739999999}},"location":{"lat":39.1885409,"lng":-94.5243461},"location_type":"ROOFTOP","viewport":{"northeast":{"lat":39.1898898802915,"lng":-94.52299716970849},"southwest":{"lat":39.1871919197085,"lng":-94.5256951302915}}},"place_id":"ChIJvblIr6v5wIcRVncqTRRdxAc","types":["premise"]}],"status":"OK"}
