{"name":"Headrush Roasters Coffee & Tea"}
{"results":[{"address_components":[{"long_name":"7108","short_name":"7108","types":["street_number"]},{"long_name":"North Oak Trafficway","short_name":"N Oak Trafficway","types":["route"]},{"long_name":"Kansas City","short_name":"KCMO","types":["locality","political"]},{"long_name":"Gallatin Township","short_name":"Gallatin Township","types":["administrative_area_level_3","political"]},{"long_name":"Clay County","short_name":"Clay County","types":["administrative_area_level_2","political"]},{"long_name":"Missouri","short_name":"MO","types":["administrative_area_level_1","political"]},{"long_name":"United States","short_name":"US","types":["country","political"]},{"long_name":"64118","short_name":"64118","types":["postal_code"]},{"long_name":"2513","short_name":"2513","types":["postal_code_suffix"]}],"formatted_address":"7108 N Oak Trafficway, Kansas City, MO 64118, USA","geometry":{"location":{"lat":39.223356,"lng":-94.5764222},"location_type":"ROOFTOP","viewport":{"northeast":{"lat":39.2247049802915,"lng":-94.5750732197085},"southwest":{"lat":39.2220070197085,"lng":-94.5777711802915}}},"partial_match":true,"place_id":"ChIJVcETSuT3wIcRKtjRDDAUoLk","types":["street_address"]}],"status":"OK"}
{"name":"McCoy’s Public House"}
{"results":[{"address_components":[{"long_name":"4057","short_name":"4057","types":["street_number"]},{"long_name":"Pennsylvania Avenue","short_name":"Pennsylvania Ave","types":["route"]},{"long_name":"Old Westport","short_name":"Old Westport","types":["neighborhood","political"]},{"long_name":"Kansas City","short_name":"KCMO","types":["locality","political"]},{"long_name":"Kaw Township","short_name":"Kaw Township","types":["administrative_area_level_3","political"]},{"long_name":"Jackson County","short_name":"Jackson County","types":["administrative_area_level_2","political"]},{"long_name":"Missouri","short_name":"MO","types":["administrative_area_level_1","political"]},{"long_name":"United States","short_name":"US","types":["country","political"]},{"long_name":"64111","short_name":"64111","types":["postal_code"]}],"formatted_address":"4057 Pennsylvania Ave, Kansas City, MO 64111, USA","geometry":{"location":{"lat":39.0531397,"lng":-94.59154509999999},"location_type":"ROOFTOP","viewport":{"northeast":{"lat":39.05448868029149,"lng":-94.5901961197085},"southwest":{"lat":39.05179071970849,"lng":-94.5928940802915}}},"place_id":"ChIJHYKiOsXvwIcRczYpqRhmGqA","types":["street_address"]}],"status":"OK"}
{"name":"Oddly Correct"}
{"results":[{"address_components":[{"long_name":"3940","short_name":"3940","types":["street_number"]},{"long_name":"Main Street","short_name":"Main St","types":["route"]},{"long_name":"Old Westport","short_name":"Old Westport","types":["neighborhood","political"]},{"long_name":"Kansas City","short_name":"KCMO","types":["locality","political"]},{"long_name":"Kaw Township","short_name":"Kaw Township","types":["administrative_area_level_3","political"]},{"long_name":"Jackson County","short_name":"Jackson County","types":["administrative_area_level_2","political"]},{"long_name":"Missouri","short_name":"MO","types":["administrative_area_level_1","political"]},{"long_name":"United States","short_name":"US","types":["country","political"]},{"long_name":"64111","short_name":"64111","types":["postal_code"]},{"long_name":"1917","short_name":"1917","types":["postal_code_suffix"]}],"formatted_address":"3940 Main St, Kansas City, MO 64111, USA","geometry":{"location":{"lat":39.055478,"lng":-94.58635570000001},"location_type":"ROOFTOP","viewport":{"northeast":{"lat":39.0568269802915,"lng":-94.58500671970852},"southwest":{"lat":39.0541290197085,"lng":-94.58770468029152}}},"partial_match":true,"place_id":"ChIJnVRi6NzvwIcRxYhMB484eNE","types":["street_address"]}],"status":"OK"}
{"name":"Marble Top Cafe"}
{"results":[{"address_components":[{"long_name":"8436","short_name":"8436","types":["street_number"]},{"long_name":"Ward Parkway","short_name":"Ward Pkwy","types":["route"]},{"long_name":"South Kansas City","short_name":"South Kansas City","types":["neighborhood","political"]},{"long_name":"Kansas City","short_name":"KCMO","types":["locality","political"]},{"long_name":"Kaw Township","short_name":"Kaw Township","types":["administrative_area_level_3","political"]},{"long_name":"Jackson County","short_name":"Jackson County","types":["administrative_area_level_2","political"]},{"long_name":"Missouri","short_name":"MO","types":["administrative_area_level_1","political"]},{"long_name":"United States","short_name":"US","types":["country","political"]},{"long_name":"64114","short_name":"64114","types":["postal_code"]}],"formatted_address":"8436 Ward Pkwy, Kansas City, MO 64114, USA","geometry":{"location":{"lat":38.9751716,"lng":-94.60749709999999},"location_type":"ROOFTOP","viewport":{"northeast":{"lat":38.97652058029149,"lng":-94.6061481197085},"southwest":{"lat":38.97382261970849,"lng":-94.6088460802915}}},"place_id":"ChIJR_U4YinpwIcRX4-d6npdOAc","types":["street_address"]}],"status":"OK"}
{"name":"Mesob Pikliz"}
{"results":[{"address_components":[{"long_name":"3405","short_name":"3405","types":["street_number"]},{"long_name":"Independence Avenue","short_name":"Independence Ave","types":["route"]},{"long_name":"Northeast Kansas City","short_name":"Northeast Kansas City","types":["neighborhood","political"]},{"long_name":"Kansas City","short_name":"KCMO","types":["locality","political"]},{"long_name":"Kaw Township","short_name":"Kaw Township","types":["administrative_area_level_3","political"]},{"long_name":"Jackson County","short_name":"Jackson County","types":["administrative_area_level_2","political"]},{"long_name":"Missouri","short_name":"MO","types":["administrative_area_level_1","political"]},{"long_name":"United States","short_name":"US","types":["country","political"]},{"long_name":"64124","short_name":"64124","types":["postal_code"]}],"formatted_address":"3405 Independence Ave, Kansas City, MO 64124, USA","geometry":{"location":{"lat":39.1057941,"lng":-94.54160739999999},"location_type":"ROOFTOP","viewport":{"northeast":{"lat":39.1071430802915,"lng":-94.5402584197085},"southwest":{"lat":39.1044451197085,"lng":-94.5429563802915}}},"place_id":"ChIJgbNyLvX6wIcRB2CcZ8Rmixc","types":["street_address"]}],"status":"OK"}
{"name":"Mildred's Coffeehouse"}
{"results":[{"address_components":[{"long_name":"1821","short_name":"1821","types":["street_number"]},{"long_name":"Wyandotte Street","short_name":"Wyandotte St","types":["route"]},{"long_name":"Crossroads","short_name":"Crossroads","types":["neighborhood","political"]},{"long_name":"Kansas City","short_name":"KCMO","types":["locality","political"]},{"long_name":"Kaw Township","short_name":"Kaw Township","types":["administrative_area_level_3","political"]},{"long_name":"Jackson County","short_name":"Jackson County","types":["administrative_area_level_2","political"]},{"long_name":"Missouri","short_name":"MO","types":["administrative_area_level_1","political"]},{"long_name":"United States","short_name":"US","types":["country","political"]},{"long_name":"64108","short_name":"64108","types":["postal_code"]}],"formatted_address":"1821 Wyandotte St, Kansas City, MO 64108, USA","geometry":{"location":{"lat":39.091076,"lng":-94.5858307},"location_type":"ROOFTOP","viewport":{"northeast":{"lat":39.0924249802915,"lng":-94.58448171970849},"southwest":{"lat":39.0897270197085,"lng":-94.58717968029151}}},"place_id":"ChIJ3wd_0kPwwIcR-IObXtBJ7zI","types":["street_address"]}],"status":"OK"}
{"name":"Grünauer"}
{"results":[{"address_components":[{"long_name":"101","short_name":"101","types":["street_number"]},{"long_name":"West 22nd Street","short_name":"W 22nd St","types":["route"]},{"long_name":"Crown Center","short_name":"Crown Center","types":["neighborhood","political"]},{"long_name":"Kansas City","short_name":"KCMO","types":["locality","political"]},{"long_name":"Kaw Township","short_name":"Kaw Township","types":["administrative_area_level_3","political"]},{"long_name":"Jackson County","short_name":"Jackson County","types":["administrative_area_level_2","political"]},{"long_name":"Missouri","short_name":"MO","types":["administrative_area_level_1","political"]},{"long_name":"United States","short_name":"US","types":["country","political"]},{"long_name":"64108","short_name":"64108","types":["postal_code"]},{"long_name":"1954","short_name":"1954","types":["postal_code_suffix"]}],"formatted_address":"101 W 22nd St, Kansas City, MO 64108, USA","geometry":{"location":{"lat":39.0875832,"lng":-94.5850388},"location_type":"ROOFTOP","viewport":{"northeast":{"lat":39.0889321802915,"lng":-94.58368981970851},"southwest":{"lat":39.0862342197085,"lng":-94.58638778029152}}},"place_id":"ChIJmzokTUDwwIcROwSIIvjBCEc","types":["street_address"]}],"status":"OK"}
{"name":"Mud Pie Vegan Bakery & Coffeehouse"}
{"results":[{"address_components":[{"long_name":"1615","short_name":"1615","types":["street_number"]},{"long_name":"West 39th Street","short_name":"W 39th St","types":["route"]},{"long_name":"Volker","short_name":"Volker","types":["neighborhood","political"]},{"long_name":"Kansas City","short_name":"KCMO","types":["locality","political"]},{"long_name":"Kaw Township","short_name":"Kaw Township","types":["administrative_area_level_3","political"]},{"long_name":"Jackson County","short_name":"Jackson County","types":["administrative_area_level_2","political"]},{"long_name":"Missouri","short_name":"MO","types":["administrative_area_level_1","political"]},{"long_name":"United States","short_name":"US","types":["country","political"]},{"long_name":"64111","short_name":"64111","types":["postal_code"]},{"long_name":"4429","short_name":"4429","types":["postal_code_suffix"]}],"formatted_address":"1615 W 39th St, Kansas City, MO 64111, USA","geometry":{"location":{"lat":39.0570022,"lng":-94.60450089999999},"location_type":"ROOFTOP","viewport":{"northeast":{"lat":39.0583511802915,"lng":-94.6031519197085},"southwest":{"lat":39.0556532197085,"lng":-94.6058498802915}}},"place_id":"ChIJv9EdxyzuwIcR_4NX26pmZFE","types":["street_address"]}],"status":"OK"}
{"name":"Higher Grounds Cafe"}
{"results":[{"address_components":[{"long_name":"3523","short_name":"3523","types":["street_number"]},{"long_name":"East Red Bridge Road","short_name":"E Red Bridge Rd","types":["route"]},{"long_name":"South Kansas City","short_name":"South Kansas City","types":["neighborhood","political"]},{"long_name":"Kansas City","short_name":"KCMO","types":["locality","political"]},{"long_name":"Washington Township","short_name":"Washington Township","types":["administrative_area_level_3","political"]},{"long_name":"Jackson County","short_name":"Jackson County","types":["administrative_area_level_2","political"]},{"long_name":"Missouri","short_name":"MO","types":["administrative_area_level_1","political"]},{"long_name":"United States","short_name":"US","types":["country","political"]},{"long_name":"64137","short_name":"64137","types":["postal_code"]},{"long_name":"2135","short_name":"2135","types":["postal_code_suffix"]}],"formatted_address":"3523 E Red Bridge Rd, Kansas City, MO 64137, USA","geometry":{"bounds":{"northeast":{"lat":38.9245389,"lng":-94.5494288},"southwest":{"lat":38.9245243,"lng":-94.5494296}},"location":{"lat":38.9245243,"lng":-94.5494296},"location_type":"RANGE_INTERPOLATED","viewport":{"northeast":{"lat":38.9258805802915,"lng":-94.5480802197085},"southwest":{"lat":38.9231826197085,"lng":-94.5507781802915}}},"place_id":"EjAzNTIzIEUgUmVkIEJyaWRnZSBSZCwgS2Fuc2FzIENpdHksIE1PIDY0MTM3LCBVU0E","types":["street_address"]}],"status":"OK"}
{"name":"Kaldi's Coffee"}
{"results":[{"address_components":[{"long_name":"1201","short_name":"1201","types":["street_number"]},{"long_name":"Main Street","short_name":"Main St","types":["route"]},{"long_name":"Power and Light District","short_name":"Power and Light District","types":["neighborhood","political"]},{"long_name":"Kansas City","short_name":"KCMO","types":["locality","political"]},{"long_name":"Kaw Township","short_name":"Kaw Township","types":["administrative_area_level_3","political"]},{"long_name":"Jackson County","short_name":"Jackson County","types":["administrative_area_level_2","political"]},{"long_name":"Missouri","short_name":"MO","types":["administrative_area_level_1","political"]},{"long_name":"United States","short_name":"US","types":["country","political"]},{"long_name":"64105","short_name":"64105","types":["postal_code"]},{"long_name":"2106","short_name":"2106","types":["postal_code_suffix"]}],"formatted_address":"1201 Main St, Kansas City, MO 64105, USA","geometry":{"location":{"lat":39.0997983,"lng":-94.5829627},"location_type":"ROOFTOP","viewport":{"northeast":{"lat":39.10114728029149,"lng":-94.5816137197085},"southwest":{"lat":39.09844931970849,"lng":-94.5843116802915}}},"place_id":"ChIJW0qpX2fwwIcRrF_qXtyXKIE","types":["street_address"]}],"status":"OK"}
{"name":"Market 3"}
{"results":[{"address_components":[{"long_name":"114","short_name":"114","types":["street_number"]},{"long_name":"West 3rd Street","short_name":"W 3rd St","types":["route"]},{"long_name":"River Market","short_name":"River Market","types":["neighborhood","political"]},{"long_name":"Kansas City","short_name":"KCMO","types":["locality","political"]},{"long_name":"Kaw Township","short_name":"Kaw Township","types":["administrative_area_level_3","political"]},{"long_name":"Jackson County","short_name":"Jackson County","types":["administrative_area_level_2","political"]},{"long_name":"Missouri","short_name":"MO","types":["administrative_area_level_1","political"]},{"long_name":"United States","short_name":"US","types":["country","political"]},{"long_name":"64105","short_name":"64105","types":["postal_code"]}],"formatted_address":"114 W 3rd St, Kansas City, MO 64105, USA","geometry":{"bounds":{"northeast":{"lat":39.109919,"lng":-94.5854292},"southwest":{"lat":39.1095319,"lng":-94.58570549999999}},"location":{"lat":39.10972539999999,"lng":-94.5855674},"location_type":"ROOFTOP","viewport":{"northeast":{"lat":39.1110744302915,"lng":-94.58421836970848},"southwest":{"lat":39.1083764697085,"lng":-94.5869163302915}}},"place_id":"ChIJd-iL9fTwwIcRBGQlqxrl2U4","types":["premise"]}],"status":"OK"}