{"name":"Metropolitan Community College - Longview"}
{"results":[{"address_components":[{"long_name":"500","short_name":"500","types":["street_number"]},{"long_name":"Southwest Longview Road","short_name":"SW Longview Rd","types":["route"]},{"long_name":"Lee's Summit","short_name":"Lee's Summit","types":["locality","political"]},{"long_name":"Prairie Township","short_name":"Prairie Township","types":["administrative_area_level_3","political"]},{"long_name":"Jackson County","short_name":"Jackson County","types":["administrative_area_level_2","political"]},{"long_name":"Missouri","short_name":"MO","types":["administrative_area_level_1","political"]},{"long_name":"United States","short_name":"US","types":["country","political"]},{"long_name":"64081","short_name":"64081","types":["postal_code"]},{"long_name":"2105","short_name":"2105","types":["postal_code_suffix"]}],"formatted_address":"500 SW Longview Rd, Lee's Summit, MO 64081, USA","geometry":{"bounds":{"northeast":{"lat":38.9094803,"lng":-94.4533695},"southwest":{"lat":38.9091756,"lng":-94.4538335}},"location":{"lat":38.909328,"lng":-94.45360149999999},"location_type":"ROOFTOP","viewport":{"northeast":{"lat":38.9106769302915,"lng":-94.4522525197085},"southwest":{"lat":38.9079789697085,"lng":-94.45495048029152}}},"place_id":"ChIJTY6A6JvgwIcRbqoV_MLA4hs","types":["premise"]}],"status":"OK"}
