{"name":"Cleaver Family YMCA"}
{"results":[{"address_components":[{"long_name":"7000","short_name":"7000","types":["street_number"]},{"long_name":"Troost Avenue","short_name":"Troost Ave","types":["route"]},{"long_name":"South Kansas City","short_name":"South Kansas City","types":["neighborhood","political"]},{"long_name":"Kansas City","short_name":"KCMO","types":["locality","political"]},{"long_name":"Kaw Township","short_name":"Kaw Township","types":["administrative_area_level_3","political"]},{"long_name":"Jackson County","short_name":"Jackson County","types":["administrative_area_level_2","political"]},{"long_name":"Missouri","short_name":"MO","types":["administrative_area_level_1","political"]},{"long_name":"United States","short_name":"US","types":["country","political"]},{"long_name":"64131","short_name":"64131","types":["postal_code"]}],"formatted_address":"7000 Troost Ave, Kansas City, MO 64131, USA","geometry":{"bounds":{"northeast":{"lat":39.0004986,"lng":-94.57662739999999},"southwest":{"lat":38.9999512,"lng":-94.57730190000001}},"location":{"lat":39.0002249,"lng":-94.5769646},"location_type":"ROOFTOP","viewport":{"northeast":{"lat":39.0015738802915,"lng":-94.57561566970851},"southwest":{"lat":38.9988759197085,"lng":-94.57831363029152}}},"place_id":"ChIJg_EuMULvwIcR88ouSVMFRlI","types":["premise"]}],"status":"OK"}